{"pageProps":{"villages":[{"barangay":"Suawan","lat":"7.2306342","lon":"125.4058525","association":"Aguila Farmers Association (AFA)","province":"Davao del Sur","municipality":"Davao City"},{"municipality":"Davao City","association":"Magsaysay Multipurpose Cooperative","province":"Davao del Sur","barangay":"Magsaysay","lon":"125.26972","lat":"7.35139"},{"province":"Davao del Sur","association":"Indangan Bagobo Womens Farmers Association","lon":"125.28139","lat":"7.33583","barangay":"Magsaysay","municipality":"Davao City"},{"association":"Jose Rizal Indigenous People Association (JIPAS)","barangay":"Jose Rizal","province":" Davao del Sur","lon":"125.4159496","municipality":"Sta. Cruz","lat":"6.9392970"},{"municipality":"Lupon","province":"Davao Oriental","association":"Calapagan Cacao Farmers Association","barangay":"Calapagan","lon":"126.0048365","lat":"6.9251440"},{"province":"Don Mariano Marcos Cacao Growers Association (DOCAGROAS)","lon":"","association":"6.9942370","municipality":"Lupon","lat":"126.0656425","barangay":"Don Mariano Marcos"},{"lat":"7.0164090","barangay":"Marayag","municipality":"Lupon","province":"Davao Oriental","lon":"126.0784879","association":"Marayag Coffee Rubber Farmers Association"},{"lon":"126.1538965","lat":"6.4153509","barangay":"Surop","association":"Grupong Maguuma sa Barangay Surop","municipality":"Governor Generoso","province":"Davao Oriental"},{"lat":"7.1976600","association":"Del Pilar Cacao Growers Association (DELPICAGRAS)","municipality":"Manay","barangay":"Del Pilar","province":"Davao Oriental","lon":"126.4691655"},{"lon":"126.1389054","barangay":"Talisay","association":"Progressive Organic Farmers & Fisherfolk Towards Ecological Conservation of Talisay","municipality":"San Isidro","lat":"6.7255625","province":"Davao Oriental"},{"municipality":"Tarragona","lat":"7.12944","barangay":"Dadong","lon":"126.42472","province":"Davao Oriental","association":"AYAWAN FARMERS ASSOCIATON (AFA)"},{"association":"KATIPUNAN MULTIPURPOSE COOPERATIVE","barangay":"Katipunan","lon":"126.0375","municipality":"Nabunturan","province":"Compostela Valley","lat":"7.54583"},{"province":"Compostela Valley","lon":"126.14917","association":"KAUSAWAGAN SA SIDE 4 FARMERS ASSOCIATION","lat":"7.73861","municipality":"Compostela","barangay":"Mangayon"},{"municipality":"Monkayo","lon":"126.08361","barangay":"Union","province":"Compostela Valley","lat":"7.79750","association":"Union Farmers Association"},{"barangay":"Bacale","lat":"7.4465880","municipality":" B.E Dujali","association":"BRAULIO E. DUJALI Organic Producers and Rural Workers Association","province":"Davao del Norte","lon":"125.6692071"},{"province":"Davao del Norte","municipality":"New Corella","barangay":"Carcor","lon":"125.8653345","lat":"7.6066565","association":"Isorosary Farmers Irrigators Association"}],"provincesMunicipalities":[{"disabled":false,"municipalities":[{"id":0,"label":"Compostela","disabled":false},{"id":1,"disabled":false,"label":"Laak"},{"id":2,"label":"Mabini","disabled":false},{"disabled":false,"label":"Maco","id":3},{"disabled":false,"id":4,"label":"Maragusan"},{"label":"Mawab","id":5,"disabled":false},{"label":"Monkayo","disabled":false,"id":6},{"disabled":false,"id":7,"label":"Montevista"},{"label":"Nabunturan","id":8,"disabled":false},{"disabled":false,"label":"New Bataan","id":9},{"id":10,"disabled":false,"label":"Pantukan"}],"label":"Compostela Valley","id":0},{"municipalities":[{"id":0,"label":"Asuncion","disabled":false},{"id":1,"disabled":false,"label":"Braulio E. Dujali"},{"disabled":false,"id":2,"label":"Carmen"},{"label":"Kapalong","disabled":false,"id":3},{"id":4,"disabled":false,"label":"New Corella"},{"disabled":false,"id":5,"label":"Panabo City"},{"label":"Samal City","disabled":false,"id":6},{"label":"San Isidro","id":7,"disabled":false},{"disabled":false,"id":8,"label":"Santo Tomas"},{"id":9,"label":"Tagum City","disabled":false},{"label":"Talaingod","disabled":false,"id":10}],"id":1,"label":"Davao del Norte","disabled":false},{"id":2,"label":"Davao del Sur","municipalities":[{"id":0,"label":"Bansalan","disabled":false},{"disabled":false,"id":1,"label":"Davao City"},{"disabled":false,"id":2,"label":"Digos City"},{"id":3,"disabled":false,"label":"Don Marcelino"},{"label":"Hagonoy","disabled":false,"id":4},{"label":"Jose Abad Santos","disabled":false,"id":5},{"disabled":false,"id":6,"label":"Kiblawan"},{"label":"Magsaysay","id":7,"disabled":false},{"id":8,"label":"Malalag","disabled":false},{"id":9,"label":"Malita","disabled":false},{"disabled":false,"id":10,"label":"Matanao"},{"label":"Padada","disabled":false,"id":11},{"disabled":false,"id":12,"label":"Santa Cruz"},{"id":13,"label":"Santa Maria","disabled":false},{"id":14,"disabled":false,"label":"Sarangani"},{"label":"Sulop","disabled":false,"id":15}],"disabled":false},{"municipalities":[{"disabled":false,"id":0,"label":"Baganga"},{"disabled":false,"id":1,"label":"Banaybanay"},{"id":2,"disabled":false,"label":"Boston"},{"id":3,"label":"Caraga","disabled":false},{"label":"Cateel","disabled":false,"id":4},{"disabled":false,"label":"Governor Generoso","id":5},{"disabled":false,"id":6,"label":"Lupon"},{"id":7,"label":"Manay","disabled":false},{"label":"Mati City","disabled":false,"id":8},{"disabled":false,"label":"San Isidro","id":9},{"disabled":false,"id":10,"label":"Tarragona"}],"label":"Davao Oriental","disabled":false,"id":3}],"media":{"description":"Agro-Climatic Advisory Portal-Bicol (ACAP-BICOL) serves as a centralized hub for the development of Climate Information Services (CIS) in the Bicol Region. It contains relevant weather and climate information which can be used in developing tailored advisories and crop recommendations.","url":"https://firebasestorage.googleapis.com/v0/b/amia-cis-dev.appspot.com/o/media%2Fimages%2Fopengraph%2F1200x600%2Fog_home_1200.png?alt=media&token=51f9241c-45da-456e-9906-677c2f8fe93a","path":"https://acap-region11.github.io"}},"__N_SSG":true}